{"version": 0.6, "generator": "Overpass API 0.7.56.1002 b121d216", "osm3s": {"timestamp_osm_base": "2020-04-03T07:14:02Z", "copyright": "The data included in this document is from www.openstreetmap.org. The data is made available under ODbL."}, "elements": [{"type": "node", "id": 3905803182, "lat": 1.4098921, "lon": 103.9013404, "tags": {"asset_ref": "65461", "bench": "yes", "bus": "yes", "highway": "bus_stop", "location": "Sumang Link", "name": "Blk 312 Carpark", "public_transport": "platform", "route_ref": "382G", "shelter": "yes"}}, {"type": "node", "id": 3905803183, "lat": 1.4098515, "lon": 103.9009786, "tags": {"asset_ref": "65469", "bench": "yes", "bus": "yes", "highway": "bus_stop", "location": "Sumang Link", "name": "Blk 310B", "public_transport": "platform", "route_ref": "382W", "shelter": "yes"}}, {"type": "node", "id": 5860554889, "lat": 1.4114906, "lon": 103.8999711, "tags": {"asset_ref": "65619", "bench": "yes", "bus": "yes", "highway": "bus_stop", "location": "Sumang Link", "name": "Nibong Stn Exit A", "public_transport": "platform", "route_ref": "382W", "shelter": "yes"}}, {"type": "node", "id": 5860554890, "lat": 1.4113545, "lon": 103.9003431, "tags": {"asset_ref": "65611", "bench": "yes", "bus": "yes", "highway": "bus_stop", "location": "Sumang Link", "name": "Nibong Stn Exit B", "public_transport": "platform", "route_ref": "382W", "shelter": "yes"}}, {"type": "node", "id": 7276194081, "lat": 1.4113084, "lon": 103.8986762, "tags": {"asset_ref": "65671", "bench": "yes", "bus": "yes", "highway": "bus_stop", "location": "Sumang Link", "name": "Punggol Cove Pr Sch", "public_transport": "platform", "route_ref": "382G", "shelter": "yes"}}, {"type": "node", "id": 7276194082, "lat": 1.4109443, "lon": 103.8990257, "tags": {"asset_ref": "65679", "bench": "yes", "bus": "yes", "highway": "bus_stop", "location": "Sumang Link", "name": "Opp Punggol Cove Pr Sch", "public_transport": "platform", "route_ref": "382G", "shelter": "yes"}}]}