{"version": 0.6, "generator": "Overpass API 0.7.56.1002 b121d216", "osm3s": {"timestamp_osm_base": "2020-04-03T07:02:02Z", "copyright": "The data included in this document is from www.openstreetmap.org. The data is made available under ODbL."}, "elements": [{"type": "node", "id": 410472383, "lat": 1.3958293, "lon": 103.910029, "tags": {"asset_ref": "65169", "bus": "yes", "highway": "bus_stop", "location": "Punggol Field", "name": "Meridian Stn Exit A", "public_transport": "platform", "route_ref": "3;62;83"}}, {"type": "node", "id": 410472392, "lat": 1.3942822, "lon": 103.9118997, "tags": {"asset_ref": "65179", "bus": "yes", "highway": "bus_stop", "location": "Punggol Field", "name": "Coral Edge Stn Exit A", "public_transport": "platform", "route_ref": "3;62;83"}}, {"type": "node", "id": 410472393, "lat": 1.3944344, "lon": 103.9122461, "tags": {"asset_ref": "65171", "bus": "yes", "highway": "bus_stop", "location": "Punggol Field", "name": "Coral Edge Stn Exit B", "public_transport": "platform", "route_ref": "3;6N;62;62A;83;386"}}, {"type": "node", "id": 410472394, "lat": 1.3963978, "lon": 103.9098666, "tags": {"asset_ref": "65161", "bus": "yes", "highway": "bus_stop", "location": "Punggol Field", "name": "Meridian Stn Exit B", "public_transport": "platform", "route_ref": "3;6N;62;62A;83"}}, {"type": "node", "id": 3865151063, "lat": 1.3967443, "lon": 103.9120865, "tags": {"asset_ref": "65429", "highway": "bus_stop", "location": "Edgefield Plains", "name": "Greendale Primary School", "route_ref": "386"}}]}